{
  "stations": [
    {
      "id": "NDLS",
      "name": "New Delhi",
      "lat": 28.6435,
      "lon": 77.2227,
      "platforms": 16,
      "is_junction": true,
      "has_loop": true
    },
    {
      "id": "GZB",
      "name": "Ghaziabad Junction",
      "lat": 28.6505,
      "lon": 77.4318,
      "platforms": 6,
      "is_junction": true,
      "has_loop": true
    },
    {
      "id": "ALJN",
      "name": "Aligarh Junction",
      "lat": 27.8888,
      "lon": 78.0747,
      "platforms": 7,
      "is_junction": true,
      "has_loop": true
    },
    {
      "id": "HRS",
      "name": "Hathras Junction",
      "lat": 27.6246,
      "lon": 78.1373,
      "platforms": 3,
      "is_junction": false,
      "has_loop": true
    },
    {
      "id": "TDL",
      "name": "Tundla Junction",
      "lat": 27.2081,
      "lon": 78.233,
      "platforms": 5,
      "is_junction": true,
      "has_loop": true
    },
    {
      "id": "FZD",
      "name": "Firozabad",
      "lat": 27.1479,
      "lon": 78.3864,
      "platforms": 3,
      "is_junction": false,
      "has_loop": true
    },
    {
      "id": "SKB",
      "name": "Shikohabad Junction",
      "lat": 27.0863,
      "lon": 78.5754,
      "platforms": 4,
      "is_junction": true,
      "has_loop": true
    },
    {
      "id": "ETW",
      "name": "Etawah Junction",
      "lat": 26.7855,
      "lon": 79.022,
      "platforms": 5,
      "is_junction": true,
      "has_loop": true
    },
    {
      "id": "PHD",
      "name": "Phaphund",
      "lat": 26.6324,
      "lon": 79.5545,
      "platforms": 4,
      "is_junction": false,
      "has_loop": true
    },
    {
      "id": "CNB",
      "name": "Kanpur Central",
      "lat": 26.4539,
      "lon": 80.3512,
      "platforms": 10,
      "is_junction": true,
      "has_loop": true
    }
  ],
  "sections": [
    {
      "id": "NDLS_GZB",
      "from": "NDLS",
      "to": "GZB",
      "distance_km": 26.0,
      "max_speed_kmph": 110,
      "track_type": "double",
      "typical_traversal_min": 20
    },
    {
      "id": "GZB_ALJN",
      "from": "GZB",
      "to": "ALJN",
      "distance_km": 106.0,
      "max_speed_kmph": 130,
      "track_type": "double",
      "typical_traversal_min": 70
    },
    {
      "id": "ALJN_HRS",
      "from": "ALJN",
      "to": "HRS",
      "distance_km": 30.0,
      "max_speed_kmph": 130,
      "track_type": "double",
      "typical_traversal_min": 20
    },
    {
      "id": "HRS_TDL",
      "from": "HRS",
      "to": "TDL",
      "distance_km": 44.0,
      "max_speed_kmph": 130,
      "track_type": "double",
      "typical_traversal_min": 30
    },
    {
      "id": "TDL_FZD",
      "from": "TDL",
      "to": "FZD",
      "distance_km": 17.0,
      "max_speed_kmph": 110,
      "track_type": "double",
      "typical_traversal_min": 12
    },
    {
      "id": "FZD_SKB",
      "from": "FZD",
      "to": "SKB",
      "distance_km": 20.0,
      "max_speed_kmph": 110,
      "track_type": "double",
      "typical_traversal_min": 15
    },
    {
      "id": "SKB_ETW",
      "from": "SKB",
      "to": "ETW",
      "distance_km": 55.0,
      "max_speed_kmph": 130,
      "track_type": "double",
      "typical_traversal_min": 35
    },
    {
      "id": "ETW_PHD",
      "from": "ETW",
      "to": "PHD",
      "distance_km": 56.0,
      "max_speed_kmph": 130,
      "track_type": "double",
      "typical_traversal_min": 36
    },
    {
      "id": "PHD_CNB",
      "from": "PHD",
      "to": "CNB",
      "distance_km": 83.0,
      "max_speed_kmph": 130,
      "track_type": "double",
      "typical_traversal_min": 55
    }
  ]
}